status_id,created_at,user_id,screen_name,text,source,reply_to_status_id,reply_to_user_id,reply_to_screen_name,is_quote,is_retweet,favorite_count,retweet_count,hashtags,symbols,urls_url,urls_t.co,urls_expanded_url,media_url,media_t.co,media_expanded_url,media_type,ext_media_url,ext_media_t.co,ext_media_expanded_url,ext_media_type,mentions_user_id,mentions_screen_name,lang,quoted_status_id,quoted_text,retweet_status_id,retweet_text,place_url,place_name,place_full_name,place_type,country,country_code,geo_coords,coords_coords,bbox_coords,lng,lat,state
969809827638768000,2018-03-03T05:40:55Z,28271971,ChelsiKerrn,"#GameNight is one of the best comedies I have ever seen. My stomach/head still ache from laughing so hard. 

All of the actors are phenomenal, but Jesse Plemmons is the real MVP. https://t.co/Azfu4nXnBg",Twitter for iPhone,,,,FALSE,FALSE,0,0,GameNight,,,,,http://pbs.twimg.com/tweet_video_thumb/DXV05JgW0AAK2Kt.jpg,https://t.co/Azfu4nXnBg,https://twitter.com/ChelsiKerrn/status/969809827638767616/photo/1,photo,http://pbs.twimg.com/tweet_video_thumb/DXV05JgW0AAK2Kt.jpg,https://t.co/Azfu4nXnBg,https://twitter.com/ChelsiKerrn/status/969809827638767616/photo/1,,,,en,,,,,https://api.twitter.com/1.1/geo/id/3877d6c867447819.json,Fort Wayne,"Fort Wayne, IN",city,United States,US,|,|,-85.336872|-85.003231|-85.003231|-85.336872|40.95926|40.95926|41.214574|41.214574,-85.1700515,41.086917,Indiana
969779664888545000,2018-03-03T03:41:04Z,2332947169,KelGWrestles01,Haha got a blazing head ache out of no whereüòÇüò≠,Twitter for iPhone,,,,FALSE,FALSE,0,0,,,,,,,,,,,,,,,,en,,,,,https://api.twitter.com/1.1/geo/id/f479e40901a48515.json,Auburn,"Auburn, WA",city,United States,US,|,|,-122.2663975|-122.144477|-122.144477|-122.2663975|47.257029|47.257029|47.356233|47.356233,-122.20543725,47.306631,Washington
969778047187645000,2018-03-03T03:34:38Z,2500267388,liamsalas1234,I have a horrible head ache :(,Twitter for iPhone,,,,FALSE,FALSE,12,9,,,,,,,,,,,,,,,,en,,,,,https://api.twitter.com/1.1/geo/id/6e315e1f96e0450a.json,Arlington,"Arlington, TX",city,United States,US,|,|,-97.233811|-97.037464|-97.037464|-97.233811|32.586565|32.586565|32.817135|32.817135,-97.1356375,32.70185,Texas
969739837703156000,2018-03-03T01:02:48Z,1426140504,x_deniii,@_UnrulyG Caffeine helps head ache,Twitter for iPhone,969739686141932000,162742482,_UnrulyG,FALSE,FALSE,0,0,,,,,,,,,,,,,,162742482,_UnrulyG,en,,,,,https://api.twitter.com/1.1/geo/id/3b98b02fba3f9753.json,North Carolina,"North Carolina, USA",admin,United States,US,|,|,-84.3219475|-75.40012|-75.40012|-84.3219475|33.752879|33.752879|36.588118|36.588118,-79.86103375,35.1704985,North Carolina
969694486933787000,2018-03-02T22:02:36Z,3246132338,Retlouping,"@BomberATDoc üòÇ I‚Äôve beeen called a lot worse than semantic üòÇ . I would suggest it clears up a lot of confusion about movement  loss in neck or head joints, it helps understanding the sources of head ache, commonly related to head joints. Allows differentiation head from neck issues.",Twitter for iPad,969691517173600000,349822929,BomberATDoc,FALSE,FALSE,1,0,,,,,,,,,,,,,,349822929,BomberATDoc,en,,,,,https://api.twitter.com/1.1/geo/id/850e74c08b577616.json,Coon Rapids,"Coon Rapids, MN",city,United States,US,|,|,-93.374494|-93.265764|-93.265764|-93.374494|45.118611|45.118611|45.212876|45.212876,-93.320129,45.1657435,Minnesota
969689033025769000,2018-03-02T21:40:56Z,74874795,ladydopemedia,To have someone consistently on your back thinking things can be done in a couple clicks or that you can just be done TODAY when you have multiple things you‚Äôre working on it‚Äôs like JUST BLOW MY BRAINS OUT ALREADY HUNNY. Adding to my stress head ache. üíÖüèæ,Twitter for iPhone,969688943900942000,74874795,ladydopemedia,FALSE,FALSE,0,0,,,,,,,,,,,,,,,,en,,,,,https://api.twitter.com/1.1/geo/id/4ec01c9dbc693497.json,Florida,"Florida, USA",admin,United States,US,|,|,-87.634643|-79.974307|-79.974307|-87.634643|24.396308|24.396308|31.001056|31.001056,-83.804475,27.698682,
969647725531693000,2018-03-02T18:56:47Z,850332300,MattiRichter,Worlds worst head ache after buying @WatershedFest tickets ... but so worth it üòç #Watershed2018,Twitter for iPhone,,,,FALSE,FALSE,3,0,Watershed2018,,,,,,,,,,,,,510723379,WatershedFest,en,,,,,https://api.twitter.com/1.1/geo/id/da6f5e66f73b8f7f.json,Coeur d'Alene,"Coeur d'Alene, ID",city,United States,US,|,|,-116.855401|-116.732088|-116.732088|-116.855401|47.65878|47.65878|47.744794|47.744794,-116.7937445,47.701787,Idaho
969641389750301000,2018-03-02T18:31:37Z,795097680,FrolickingFawn,I had 3 Coors Lights last night and I have a massive head ache today. This is what getting old feels like.,Twitter for iPhone,,,,FALSE,FALSE,3,0,,,,,,,,,,,,,,,,en,,,,,https://api.twitter.com/1.1/geo/id/2dbbd1540f814343.json,Tacoma,"Tacoma, WA",city,United States,US,|,|,-122.5622146|-122.3484729|-122.3484729|-122.5622146|47.166863|47.166863|47.319058|47.319058,-122.45534375,47.2429605,Washington
969577122959364000,2018-03-02T14:16:14Z,449319657,Cvbriggs,My car is the biggest head ache &amp; hole in my pocket,Twitter for iPhone,,,,FALSE,FALSE,1,1,,,,,,,,,,,,,,,,en,,,,,https://api.twitter.com/1.1/geo/id/7df9a00dcf914d5e.json,Plantation,"Plantation, FL",city,United States,US,|,|,-80.330201|-80.1968332|-80.1968332|-80.330201|26.088262|26.088262|26.160753|26.160753,-80.2635171,26.1245075,Florida
969554033492013000,2018-03-02T12:44:29Z,720944315715961000,SteveFreed5,Protect your investment by regularly inspection of your Fertilizer storage. This cracked/broken hose could be a head ache for this guy. Take the time. https://t.co/Fe3bhBfXAU,Twitter for Android,,,,FALSE,FALSE,2,1,,,,,,http://pbs.twimg.com/media/DXSMO_AVQAAQYHi.jpg,https://t.co/Fe3bhBfXAU,https://twitter.com/SteveFreed5/status/969554033492013056/photo/1,photo,http://pbs.twimg.com/media/DXSMO_AVQAAQYHi.jpg,https://t.co/Fe3bhBfXAU,https://twitter.com/SteveFreed5/status/969554033492013056/photo/1,,,,en,,,,,https://api.twitter.com/1.1/geo/id/3f5897b87d2bf56c.json,Delaware,"Delaware, USA",admin,United States,US,|,|,-75.7887564|-74.984165|-74.984165|-75.7887564|38.4510398|38.4510398|39.839007|39.839007,-75.3864607,39.1450234,
969467314860065000,2018-03-02T06:59:54Z,296991901,GreeZdog_,Sports center give me a damn head ache,Twitter for iPhone,,,,FALSE,FALSE,0,0,,,,,,,,,,,,,,,,en,,,,,https://api.twitter.com/1.1/geo/id/00e9226863a6e5a4.json,Savannah,"Savannah, GA",city,United States,US,|,|,-81.188663|-81.03057|-81.03057|-81.188663|31.922596|31.922596|32.111973|32.111973,-81.1096165,32.0172845,Georgia
969423073794380000,2018-03-02T04:04:06Z,1656923522,SandyC_,This fucking head ache is killing me üò´,Twitter for iPhone,,,,FALSE,FALSE,1,0,,,,,,,,,,,,,,,,en,,,,,https://api.twitter.com/1.1/geo/id/d71cc91cb651e322.json,South Gate,"South Gate, CA",city,United States,US,|,|,-118.231784|-118.1562673|-118.1562673|-118.231784|33.909795|33.909795|33.9662953|33.9662953,-118.19402565,33.93804515,California
969411481619042000,2018-03-02T03:18:02Z,2455018818,abbyrobertson23,This head ache can go away anytime now ü§Æ,Twitter for iPhone,,,,FALSE,FALSE,0,0,,,,,,,,,,,,,,,,en,,,,,https://api.twitter.com/1.1/geo/id/463f5d9615d7d1be.json,Maine,"Maine, USA",admin,United States,US,|,|,-71.084335|-66.885075|-66.885075|-71.084335|42.917127|42.917127|47.459687|47.459687,-68.984705,45.188407,Maine
969396567559082000,2018-03-02T02:18:46Z,3115777911,BrianaZakiya17,I‚Äôve had a head ache everyday this week . ü§ß,Twitter for iPhone,,,,FALSE,FALSE,1,3,,,,,,,,,,,,,,,,en,,,,,https://api.twitter.com/1.1/geo/id/a265d5d344dbd61d.json,Radford,"Radford, VA",city,United States,US,|,|,-80.595589|-80.513486|-80.513486|-80.595589|37.0900216|37.0900216|37.146017|37.146017,-80.5545375,37.1180193,Virginia
969372655966179000,2018-03-02T00:43:45Z,391152818,ElephantinCourt,Keepin Up WITH THEE JACKSONS  Given Me a DANGEROUS Head Ache. Escpecially all the Hair DOES of   @jermjackson5,Twitter Web Client,,,,FALSE,FALSE,1,0,,,,,,,,,,,,,,129026349,jermjackson5,en,,,,,https://api.twitter.com/1.1/geo/id/3b77caf94bfc81fe.json,Los Angeles,"Los Angeles, CA",city,United States,US,|,|,-118.668404|-118.155409|-118.155409|-118.668404|33.704538|33.704538|34.337041|34.337041,-118.4119065,34.0207895,California
969359921136333000,2018-03-01T23:53:09Z,3184493504,__raquelbarba,"I walked into my house and told my mom that I was hella hungry and I have a head ache, my mom said ‚ÄúPues haste cafe que quieres comer‚Äù when I tell y‚Äôall I‚Äôm eating hella good this weekend ... üò≠‚ù§Ô∏èüôèüèº",Twitter for iPhone,,,,FALSE,FALSE,3,0,,,,,,,,,,,,,,,,en,,,,,https://api.twitter.com/1.1/geo/id/b1b6fc646de75904.json,Los Banos,"Los Banos, CA",city,United States,US,|,|,-120.879833|-120.803053|-120.803053|-120.879833|37.033745|37.033745|37.088185|37.088185,-120.841443,37.060965,California
969358983323574000,2018-03-01T23:49:26Z,2150396282,Michael_Cadiz,@ConnieTalbot607 I put a damp wash cloth on my forehead and lay down till the head ache passes,Twitter for iPhone,969348228759073000,116024420,ConnieTalbot607,FALSE,FALSE,0,0,,,,,,,,,,,,,,116024420,ConnieTalbot607,en,,,,,https://api.twitter.com/1.1/geo/id/a612c69b44b2e5da.json,Arizona,"Arizona, USA",admin,United States,US,|,|,-114.818269|-109.0451527|-109.0451527|-114.818269|31.3322463|31.3322463|37.004261|37.004261,-111.93171085,34.16825365,Arizona
969354148020974000,2018-03-01T23:30:13Z,324370955,antweezy93,I have a head ache now . Is this karma,Twitter for iPhone,,,,FALSE,FALSE,2,0,,,,,,,,,,,,,,,,en,,,,,https://api.twitter.com/1.1/geo/id/265f5cd93d66b1a1.json,Ankeny,"Ankeny, IA",city,United States,US,|,|,-93.677966|-93.545095|-93.545095|-93.677966|41.688221|41.688221|41.777677|41.777677,-93.6115305,41.732949,Iowa
969254546701775000,2018-03-01T16:54:26Z,238371437,SantosOjeda_,I hate having a head ache,Twitter for iPhone,,,,FALSE,FALSE,0,0,,,,,,,,,,,,,,,,en,,,,,https://api.twitter.com/1.1/geo/id/9a974dfc8efb32a0.json,Kansas City,"Kansas City, MO",city,United States,US,|,|,-94.733122|-94.3854414|-94.3854414|-94.733122|38.868002|38.868002|39.332095|39.332095,-94.5592817,39.1000485,Missouri
969231535168741000,2018-03-01T15:23:00Z,833473165296742000,YurokInovator,randy India want to flirt with this woman...when it's quiet Time in the Hostel. Bad head ache. I don't like that woman LAUGHING when I polightly...reminded them of the Rules.,Twitter for Android,,,,FALSE,FALSE,0,0,,,,,,,,,,,,,,,,en,,,,,https://api.twitter.com/1.1/geo/id/01fbe706f872cb32.json,Washington,"Washington, DC",city,United States,US,|,|,-77.119401|-76.909396|-76.909396|-77.119401|38.801826|38.801826|38.9953797|38.9953797,-77.0143985,38.89860285,District of Columbia
969194443122373000,2018-03-01T12:55:36Z,3235474027,kartelpapi_,I know that snake got a fool ass head ache https://t.co/Xe84LbavbQ,Twitter for iPhone,,,,TRUE,FALSE,1,0,,,twitter.com/kollegekidd/st‚Ä¶,https://t.co/Xe84LbavbQ,https://twitter.com/kollegekidd/status/968904869502308352,,,,,,,,,,,en,968904869502308000,#Snake Almost Caught Dog Lackin üòÆ https://t.co/F0zoRFLpNq,,,https://api.twitter.com/1.1/geo/id/7142eb97ae21e839.json,Georgia,"Georgia, USA",admin,United States,US,|,|,-85.605166|-80.742567|-80.742567|-85.605166|30.355644|30.355644|35.000771|35.000771,-83.1738665,32.6782075,Georgia
969135965938713000,2018-03-01T09:03:14Z,2693605348,_aileennnnn,worst head ache of my life &amp; i gotta be up in 3 hours üôÉ,Twitter for iPhone,,,,FALSE,FALSE,1,0,,,,,,,,,,,,,,,,en,,,,,https://api.twitter.com/1.1/geo/id/6ba08e404aed471f.json,Riverside,"Riverside, CA",city,United States,US,|,|,-117.523867|-117.271365|-117.271365|-117.523867|33.85216|33.85216|34.019484|34.019484,-117.397616,33.935822,California
969115042783220000,2018-03-01T07:40:06Z,1116001454,deydey_14,Can‚Äôt sleep and have a slight head ache brb ‚úàÔ∏è,Twitter for iPhone,,,,FALSE,FALSE,3,0,,,,,,,,,,,,,,,,en,,,,,https://api.twitter.com/1.1/geo/id/fbd6d2f5a4e4a15e.json,California,"California, USA",admin,United States,US,|,|,-124.482003|-114.131212|-114.131212|-124.482003|32.528832|32.528832|42.009519|42.009519,-119.3066075,37.2691755,California
969078245747450000,2018-03-01T05:13:53Z,3226983787,ummbritneyy,The only reason why I hate going to Jackie‚Äôs is cause I always leave with a huge head ache from how much and how hard we fucking laugh üòÇüò©,Twitter for iPhone,,,,FALSE,FALSE,0,0,,,,,,,,,,,,,,,,en,,,,,https://api.twitter.com/1.1/geo/id/3b77caf94bfc81fe.json,Los Angeles,"Los Angeles, CA",city,United States,US,|,|,-118.668404|-118.155409|-118.155409|-118.668404|33.704538|33.704538|34.337041|34.337041,-118.4119065,34.0207895,California
969057975020245000,2018-03-01T03:53:20Z,584231264,KAT3XBBY,The head ache I have tho üôÜüèº‚Äç‚ôÄÔ∏è,Twitter for iPhone,,,,FALSE,FALSE,9,0,,,,,,,,,,,,,,,,en,,,,,https://api.twitter.com/1.1/geo/id/008097920e218240.json,Chesterfield,"Chesterfield, MI",city,United States,US,|,|,-82.859608|-82.756103|-82.756103|-82.859608|42.630077|42.630077|42.719944|42.719944,-82.8078555,42.6750105,Michigan
969008773590233000,2018-03-01T00:37:49Z,783132552584278000,KenBar2lome,Head ache üòñ,Twitter for iPhone,,,,FALSE,FALSE,0,0,,,,,,,,,,,,,,,,en,,,,,https://api.twitter.com/1.1/geo/id/53504716d445dcad.json,Calgary,"Calgary, Alberta",city,Canada,CA,|,|,-114.3160379|-113.859664|-113.859664|-114.3160379|50.84278|50.84278|51.212548|51.212548,-114.08785095,51.027664,
968988682987319000,2018-02-28T23:17:59Z,833199235784798000,Tamehnter,There‚Äôs got to be some sort of PLAY.. to this hope hicks resignation. I just need someone else to figure it out for me . I have a head ache üòñ,Twitter for iPhone,,,,FALSE,FALSE,3,0,,,,,,,,,,,,,,,,en,,,,,https://api.twitter.com/1.1/geo/id/526d2258fff0f7ad.json,Healdsburg,"Healdsburg, CA",city,United States,US,|,|,-122.886015|-122.8423631|-122.8423631|-122.886015|38.592585|38.592585|38.647824|38.647824,-122.86418905,38.6202045,California
968949347433046000,2018-02-28T20:41:41Z,44626386,mkaytabi,i seriously have the worst head ache :(@,Twitter for iPhone,,,,FALSE,FALSE,0,0,,,,,,,,,,,,,,,,en,,,,,https://api.twitter.com/1.1/geo/id/288de3df481163e8.json,Alabama,"Alabama, USA",admin,United States,US,|,|,-88.473228|-84.888247|-84.888247|-88.473228|30.144425|30.144425|35.008029|35.008029,-86.6807375,32.576227,Alabama
968921405856371000,2018-02-28T18:50:39Z,250344417,xriahhh,I have the worst head ache ever like wtf üòëüòëüòëüòë,Twitter for iPhone,,,,FALSE,FALSE,1,0,,,,,,,,,,,,,,,,en,,,,,https://api.twitter.com/1.1/geo/id/009df16b3d0834c7.json,Wright-Patterson Air Force Base,"Wright-Patterson Air Force Base, OH",city,United States,US,|,|,-84.122669|-84.0187502|-84.0187502|-84.122669|39.769967|39.769967|39.8431316|39.8431316,-84.0707096,39.8065493,Ohio
968880650618098000,2018-02-28T16:08:42Z,53660791,frat14,"‚ÄúI like to drink red wine. This girl asked me hey doesn‚Äôt red wine give you a head ache? I said yeah eventually, but the first and the middle part are amazing. I‚Äôm not gunna stop doing something bc of what happens at the end!‚Äù",Twitter for iPhone,,,,FALSE,FALSE,0,0,,,,,,,,,,,,,,,,en,,,,,https://api.twitter.com/1.1/geo/id/6057f1e35bcc6c20.json,South Carolina,"South Carolina, USA",admin,United States,US,|,|,-83.353955|-78.499301|-78.499301|-83.353955|32.04683|32.04683|35.215449|35.215449,-80.926628,33.6311395,South Carolina
968874291965067000,2018-02-28T15:43:26Z,833473165296742000,YurokInovator,My voice Box is still swollen&amp; down my esophagus. Bad head ache. General weakness in my muscles.,Twitter for Android,,,,FALSE,FALSE,0,0,,,,,,,,,,,,,,,,en,,,,,https://api.twitter.com/1.1/geo/id/01fbe706f872cb32.json,Washington,"Washington, DC",city,United States,US,|,|,-77.119401|-76.909396|-76.909396|-77.119401|38.801826|38.801826|38.9953797|38.9953797,-77.0143985,38.89860285,District of Columbia
968857335232959000,2018-02-28T14:36:03Z,362681215,Jeewweellll,i really wish you niggas would stop tryna talk to me. y‚Äôall make my head ache.,Twitter for iPhone,,,,FALSE,FALSE,0,0,,,,,,,,,,,,,,,,en,,,,,https://api.twitter.com/1.1/geo/id/00020fb13f41b8bf.json,Fort Benning,"Fort Benning, GA",city,United States,US,|,|,-84.990997|-84.890116|-84.890116|-84.990997|32.336649|32.336649|32.383464|32.383464,-84.9405565,32.3600565,Georgia
968832954058379000,2018-02-28T12:59:10Z,801587610191888000,jillian_nabozny,"I had the biggest head ache, I thought my eyes were going to explode ü§ßüò™",Twitter for iPhone,,,,FALSE,FALSE,1,0,,,,,,,,,,,,,,,,en,,,,,https://api.twitter.com/1.1/geo/id/879dfee0187b884a.json,Westland,"Westland, MI",city,United States,US,|,|,-83.430458|-83.308978|-83.308978|-83.430458|42.267434|42.267434|42.355177|42.355177,-83.369718,42.3113055,Michigan
968700641613894000,2018-02-28T04:13:25Z,3018261969,babyappalachian,"my mind wanders and i get lost
in thoughts of you i sleep to escape cause drinking kills you anyway so why when i wake does my head still ache",Twitter for iPhone,,,,FALSE,FALSE,8,0,,,,,,,,,,,,,,,,en,,,,,https://api.twitter.com/1.1/geo/id/1a24ec047e408e4c.json,Boaz,"Boaz, AL",city,United States,US,|,|,-86.191466|-86.128423|-86.128423|-86.191466|34.165112|34.165112|34.237419|34.237419,-86.1599445,34.2012655,Alabama
968692354893873000,2018-02-28T03:40:29Z,148587830,Zoeyy_Fitzz,I knew I was gone have a head ache today I felt it coming like 2 days ago. üò©,Twitter for iPhone,,,,FALSE,FALSE,0,0,,,,,,,,,,,,,,,,en,,,,,https://api.twitter.com/1.1/geo/id/b077585758242faa.json,Sandy Springs,"Sandy Springs, GA",city,United States,US,|,|,-84.4468|-84.2580892|-84.2580892|-84.4468|33.876737|33.876737|34.010177|34.010177,-84.3524446,33.943457,Georgia
968691445929570000,2018-02-28T03:36:52Z,850141041294553000,upstateKeys,This head ache killing my vibe dawg,Twitter for Android,,,,FALSE,FALSE,0,0,,,,,,,,,,,,,,,,en,,,,,https://api.twitter.com/1.1/geo/id/94965b2c45386f87.json,New York,"New York, USA",admin,United States,US,|,|,-79.76259|-71.777492|-71.777492|-79.76259|40.477383|40.477383|45.015851|45.015851,-75.770041,42.746617,New York
968672454720844000,2018-02-28T02:21:24Z,754816782,b_mtz_chvz,This literally gave me a head ache bro,Twitter for Android,,,,FALSE,FALSE,0,0,,,,,,,,,,,,,,,,en,,,,,https://api.twitter.com/1.1/geo/id/a84b808ce3f11719.json,Omaha,"Omaha, NE",city,United States,US,|,|,-96.234587|-95.872275|-95.872275|-96.234587|41.175884|41.175884|41.375558|41.375558,-96.053431,41.275721,Nebraska
968655999350526000,2018-02-28T01:16:01Z,1295816239,israelbatista__,I have a head ache now lmfao,Twitter for iPhone,,,,FALSE,FALSE,1,0,,,,,,,,,,,,,,,,en,,,,,https://api.twitter.com/1.1/geo/id/52f4a98d03e4ea4f.json,Clarksville,"Clarksville, TN",city,United States,US,|,|,-87.486546|-87.157791|-87.157791|-87.486546|36.4602|36.4602|36.641767|36.641767,-87.3221685,36.5509835,Tennessee
968623714458796000,2018-02-27T23:07:44Z,3331733915,AshleyMarieGlo1,"- I can‚Äôt fucking wait to get my hair cut on Thursday! God damn, my bangs are long as hell and my hair is so thick it gives me a head ache! üôàüôàüôàüò´",Twitter for iPhone,,,,FALSE,FALSE,1,0,,,,,,,,,,,,,,,,en,,,,,https://api.twitter.com/1.1/geo/id/07b0bfad405bef87.json,Mexico,"Mexico, ME",city,United States,US,|,|,-70.557539|-70.51605|-70.51605|-70.557539|44.539271|44.539271|44.5723|44.5723,-70.5367945,44.5557855,Maine
968560956191097000,2018-02-27T18:58:21Z,732061687017148000,claireeewinans,please stop everything hurts and these tweets are making my head ache worse https://t.co/6PhH3gNgOC,Twitter for iPhone,,,,TRUE,FALSE,3,1,,,twitter.com/bonofanfiction‚Ä¶,https://t.co/6PhH3gNgOC,https://twitter.com/bonofanfiction/status/968560162070908929,,,,,,,,,,,en,968560162070909000,"I have that G Eazy hangover, that Russ hangover",,,https://api.twitter.com/1.1/geo/id/944c03c1d85ef480.json,Fresno,"Fresno, CA",city,United States,US,|,|,-119.93251|-119.632419|-119.632419|-119.93251|36.648905|36.648905|36.923179|36.923179,-119.7824645,36.786042,California
968525207169221000,2018-02-27T16:36:18Z,325181798,jesusfreak42888,I‚Äôm so sick. My head and body ache all over. Pray for me. üôèüèª,Twitter for iPhone,,,,FALSE,FALSE,0,0,,,,,,,,,,,,,,,,en,,,,,https://api.twitter.com/1.1/geo/id/86c7758154eb2ada.json,Veneta,"Veneta, OR",city,United States,US,|,|,-123.372415|-123.327236|-123.327236|-123.372415|44.033588|44.033588|44.05653|44.05653,-123.3498255,44.045059,Oregon
968498719426413000,2018-02-27T14:51:03Z,3016131565,Deja_Tranquilla,Not happy that I had to call out today but I fr got the worst head ache üò§,Twitter for iPhone,,,,FALSE,FALSE,1,0,,,,,,,,,,,,,,,,en,,,,,https://api.twitter.com/1.1/geo/id/52445186970bafb3.json,Chandler,"Chandler, AZ",city,United States,US,|,|,-111.972849|-111.788898|-111.788898|-111.972849|33.2037607|33.2037607|33.36114|33.36114,-111.8808735,33.28245035,Arizona
968451285413519000,2018-02-27T11:42:34Z,2238897639,JaymeyAnne,i haven‚Äôt even gotten out of bed yet and i have a head ache,Twitter for iPhone,,,,FALSE,FALSE,0,0,,,,,,,,,,,,,,,,en,,,,,https://api.twitter.com/1.1/geo/id/e323284691c68159.json,West Mifflin,"West Mifflin, PA",city,United States,US,|,|,-79.9653782|-79.846018|-79.846018|-79.9653782|40.3195582|40.3195582|40.4022607|40.4022607,-79.9056981,40.36090945,Pennsylvania
968447849661743000,2018-02-27T11:28:54Z,794062582889980000,_withlovehailey,Woke up with the worst head ache,Twitter for iPhone,,,,FALSE,FALSE,0,0,,,,,,,,,,,,,,,,en,,,,,https://api.twitter.com/1.1/geo/id/adc95f2911133646.json,Colorado Springs,"Colorado Springs, CO",city,United States,US,|,|,-104.910562|-104.668092|-104.668092|-104.910562|38.741142|38.741142|39.035895|39.035895,-104.789327,38.8885185,Colorado
968442674884891000,2018-02-27T11:08:21Z,143185752,Barrios_____,I need some head(ache pills) and a blunt(force hit) to the face. https://t.co/fbRXJuzc3k,Twitter for iPhone,,,,TRUE,FALSE,2,0,,,twitter.com/lilmaziijugg/s‚Ä¶,https://t.co/fbRXJuzc3k,https://twitter.com/lilmaziijugg/status/968355616916897792,,,,,,,,,,,en,968355616916898000,i need some head and a blunt to the face,,,https://api.twitter.com/1.1/geo/id/004fcac6274ef9ca.json,Lawrence,"Lawrence, NJ",city,United States,US,|,|,-74.762755|-74.6644118|-74.6644118|-74.762755|40.2398165|40.2398165|40.3177474|40.3177474,-74.7135834,40.27878195,New Jersey
968335078781850000,2018-02-27T04:00:48Z,1574432707,maaaars_9,I want my head ache to go away,Twitter for iPhone,,,,FALSE,FALSE,0,0,,,,,,,,,,,,,,,,en,,,,,https://api.twitter.com/1.1/geo/id/3df4f427b5a60fea.json,San Antonio,"San Antonio, TX",city,United States,US,|,|,-98.778559|-98.302744|-98.302744|-98.778559|29.141956|29.141956|29.693046|29.693046,-98.5406515,29.417501,Texas
968324154385674000,2018-02-27T03:17:23Z,326396071,foreverkeke__,I mean for all you know my nigga could be a head ache ü§∑üèΩ‚Äç‚ôÄÔ∏è,Twitter for iPhone,,,,FALSE,FALSE,0,0,,,,,,,,,,,,,,,,en,,,,,https://api.twitter.com/1.1/geo/id/9d4c71b7937a3a90.json,Tyler,"Tyler, TX",city,United States,US,|,|,-95.414773|-95.219307|-95.219307|-95.414773|32.221406|32.221406|32.409917|32.409917,-95.31704,32.3156615,Texas
968315250968842000,2018-02-27T02:42:00Z,745842114546795000,cheyenne_mb23,I have a junk food head ache.,Twitter for iPhone,,,,FALSE,FALSE,0,0,,,,,,,,,,,,,,,,en,,,,,https://api.twitter.com/1.1/geo/id/93ee41c795df1086.json,Fallbrook,"Fallbrook, CA",city,United States,US,|,|,-117.262188|-117.1776348|-117.1776348|-117.262188|33.318495|33.318495|33.414093|33.414093,-117.2199114,33.366294,California
968280480624857000,2018-02-27T00:23:51Z,2730118445,jahcelyndavis,i have a really intense head ache right now so i‚Äôm probably gonna go to sleep,Twitter for iPhone,,,,FALSE,FALSE,0,0,,,,,,,,,,,,,,,,en,,,,,https://api.twitter.com/1.1/geo/id/468bfe7c705fbc37.json,Stamford,"Stamford, CT",city,United States,US,|,|,-73.606436|-73.501758|-73.501758|-73.606436|41.016898|41.016898|41.179771|41.179771,-73.554097,41.0983345,Connecticut
968217542257992000,2018-02-26T20:13:45Z,3174235191,zoeelizza,head ache too much blunt spray can‚Äôt drive my car,Twitter for iPhone,,,,FALSE,FALSE,0,0,,,,,,,,,,,,,,,,en,,,,,https://api.twitter.com/1.1/geo/id/fd25378f7b90960b.json,Perry Hall,"Perry Hall, MD",city,United States,US,|,|,-76.503771|-76.409521|-76.409521|-76.503771|39.37832|39.37832|39.436165|39.436165,-76.456646,39.4072425,Maryland
968182843812676000,2018-02-26T17:55:52Z,4093003634,G_eileeen,Fucking head ache is back üò´,Twitter for iPhone,,,,FALSE,FALSE,0,0,,,,,,,,,,,,,,,,en,,,,,https://api.twitter.com/1.1/geo/id/38109314e8d0ee2f.json,Roseville,"Roseville, CA",city,United States,US,|,|,-121.385009|-121.216452|-121.216452|-121.385009|38.716061|38.716061|38.8102595|38.8102595,-121.3007305,38.76316025,California
968163386650276000,2018-02-26T16:38:33Z,946624512493105000,lzsxox,Woke up with a head ache because of a nightmare I had of my childhood üò´,Twitter for iPhone,,,,FALSE,FALSE,1,0,,,,,,,,,,,,,,,,en,,,,,https://api.twitter.com/1.1/geo/id/fedbd9fc207aae2a.json,San Bernardino,"San Bernardino, CA",city,United States,US,|,|,-117.401199|-117.1869926|-117.1869926|-117.401199|34.0503113|34.0503113|34.219539|34.219539,-117.2940958,34.13492515,California
967992231843062000,2018-02-26T05:18:27Z,2922611,SwitchingGranny,Did you know that you can literally die from a broken heart?  God be the lifter of my head and the Healer of my heart. You know the ache I feel right now. You are never left unknowing.  I surrender all,Twitter for iPad,,,,FALSE,FALSE,1,0,,,,,,,,,,,,,,,,en,,,,,https://api.twitter.com/1.1/geo/id/ad815dfe8c34a012.json,Evansville,"Evansville, IN",city,United States,US,|,|,-87.699649|-87.449732|-87.449732|-87.699649|37.9239819|37.9239819|38.082951|38.082951,-87.5746905,38.00346645,Indiana
967976877532025000,2018-02-26T04:17:26Z,18686428,jazzycheeks,I got a head ache .,Twitter for iPhone,,,,FALSE,FALSE,0,0,,,,,,,,,,,,,,,,en,,,,,https://api.twitter.com/1.1/geo/id/1c69a67ad480e1b1.json,Houston,"Houston, TX",city,United States,US,|,|,-95.823268|-95.069705|-95.069705|-95.823268|29.522325|29.522325|30.1546646|30.1546646,-95.4464865,29.8384948,Texas
967962293974786000,2018-02-26T03:19:29Z,624581733,spiffy_moh,I be riding with the music low sometimes cause all that head bangin shit kind of a head ache,Twitter for iPhone,,,,FALSE,FALSE,0,0,,,,,,,,,,,,,,,,en,,,,,https://api.twitter.com/1.1/geo/id/b29b5683c45df9d1.json,Leon Valley,"Leon Valley, TX",city,United States,US,|,|,-98.632532|-98.586098|-98.586098|-98.632532|29.476726|29.476726|29.515672|29.515672,-98.609315,29.496199,Texas
967952218883265000,2018-02-26T02:39:27Z,830243066,Heat_on_my_feet,This head ache gotta go,Twitter for iPhone,,,,FALSE,FALSE,0,0,,,,,,,,,,,,,,,,en,,,,,https://api.twitter.com/1.1/geo/id/a6c257c61f294ec1.json,Greensboro,"Greensboro, NC",city,United States,US,|,|,-80.0295184|-79.6852086|-79.6852086|-80.0295184|35.962623|35.962623|36.218171|36.218171,-79.8573635,36.090397,North Carolina
967946491758305000,2018-02-26T02:16:41Z,86205386,Varyy_,had a head ache  for like 4 days now :(,Twitter for iPhone,,,,FALSE,FALSE,0,0,,,,,,,,,,,,,,,,en,,,,,https://api.twitter.com/1.1/geo/id/b2cdaa7db78ed09b.json,Snellville,"Snellville, GA",city,United States,US,|,|,-84.042837|-83.950981|-83.950981|-84.042837|33.818392|33.818392|33.890635|33.890635,-83.996909,33.8545135,Georgia
967890081607504000,2018-02-25T22:32:32Z,26887791,ChelsIsRight,The sinus head ache I have right now is unnecessary. I have had a good Sunday so far.,Twitter for iPhone,,,,FALSE,FALSE,0,0,,,,,,,,,,,,,,,,en,,,,,https://api.twitter.com/1.1/geo/id/01fbe706f872cb32.json,Washington,"Washington, DC",city,United States,US,|,|,-77.119401|-76.909396|-76.909396|-77.119401|38.801826|38.801826|38.9953797|38.9953797,-77.0143985,38.89860285,District of Columbia
967830212158239000,2018-02-25T18:34:38Z,269564759,sphorton_,God I have a head ache üò©,Twitter for iPhone,,,,FALSE,FALSE,0,0,,,,,,,,,,,,,,,,en,,,,,https://api.twitter.com/1.1/geo/id/00ec60e4304ee8bf.json,Menifee,"Menifee, CA",city,United States,US,|,|,-117.258067|-117.1360983|-117.1360983|-117.258067|33.618318|33.618318|33.757777|33.757777,-117.19708265,33.6880475,California
967806583961920000,2018-02-25T17:00:45Z,3251235746,estoylocapapi,"Gonna have a permanent head ache from crying for a while üíîüòî losing a family member is the worst especially if it‚Äôs your grandma, grandmas and moms are Everything and I lost both of mineüíîüíîüíîüíîüíî",Twitter for iPhone,,,,FALSE,FALSE,0,0,,,,,,,,,,,,,,,,en,,,,,https://api.twitter.com/1.1/geo/id/3c4f04061382a552.json,Fillmore,"Fillmore, CA",city,United States,US,|,|,-118.937453|-118.88986|-118.88986|-118.937453|34.388166|34.388166|34.417711|34.417711,-118.9136565,34.4029385,California
967776468846678000,2018-02-25T15:01:05Z,3054152178,FarmerRob17,@hockball53 The entire goalie interference thing has got out of control. Ya it could have went either way. Have seen similar called either way All yr. I just would like some consistancy. League has a head ache on there hands.,Twitter for Android,967774302824272000,3041872329,hockball53,FALSE,FALSE,1,0,,,,,,,,,,,,,,3041872329,hockball53,en,,,,,https://api.twitter.com/1.1/geo/id/0744871164013bc2.json,Lucan Biddulph,"Lucan Biddulph, Ontario",city,Canada,CA,|,|,-81.4688941|-81.223964|-81.223964|-81.4688941|43.143121|43.143121|43.292971|43.292971,-81.34642905,43.218046,
967642202695455000,2018-02-25T06:07:33Z,866339081357320000,YoungUzuMami,"It‚Äôs ‚ÄòMy Sisters Keeper All Over Again‚Äô üò≠üò≠ don‚Äôt watch ‚ÄòYou‚Äôre Not You‚Äô on Netflix, I‚Äôm gonn go cry myself to sleep now. I have a head ache from crying ü§ß",Twitter for iPhone,,,,FALSE,FALSE,0,0,,,,,,,,,,,,,,,,en,,,,,https://api.twitter.com/1.1/geo/id/9f4583bf6dae13c4.json,Springfield,"Springfield, MA",city,United States,US,|,|,-72.620117|-72.471052|-72.471052|-72.620117|42.06398|42.06398|42.162145|42.162145,-72.5455845,42.1130625,Massachusetts
967623724768944000,2018-02-25T04:54:08Z,117886687,PaigeMartinez86,omg I‚Äôve got the worst head ache in the whole freaking world,Twitter for iPhone,,,,FALSE,FALSE,0,1,,,,,,,,,,,,,,,,en,,,,,https://api.twitter.com/1.1/geo/id/00e197b630ad64cf.json,Duquesne,"Duquesne, MO",city,United States,US,|,|,-94.4739021|-94.423007|-94.423007|-94.4739021|37.054821|37.054821|37.0895111|37.0895111,-94.44845455,37.07216605,Missouri
967567789325259000,2018-02-25T01:11:52Z,17946392,Fire_Isis,"Upset tummy and head ache. Most people would pop some Advil. I‚Äôve gathered up some of my #citrine, #amethyst and #turquoise, placed them on my stomach and forehead and my pain has subsided substantially. 

There is strength in #holistic #health üîÆ https://t.co/jHTtVblnuF",Twitter for iPhone,,,,FALSE,FALSE,0,0,citrine|amethyst|turquoise|holistic|health,,,,,http://pbs.twimg.com/media/DW19vhvV4AAb0TG.jpg,https://t.co/jHTtVblnuF,https://twitter.com/Fire_Isis/status/967567789325258752/photo/1,photo,http://pbs.twimg.com/media/DW19vhvV4AAb0TG.jpg,https://t.co/jHTtVblnuF,https://twitter.com/Fire_Isis/status/967567789325258752/photo/1,,,,en,,,,,https://api.twitter.com/1.1/geo/id/dd3b100831dd1763.json,New Orleans,"New Orleans, LA",city,United States,US,|,|,-90.137908|-89.884108|-89.884108|-90.137908|29.889574|29.889574|30.075628|30.075628,-90.011008,29.982601,Louisiana
967511124253053000,2018-02-24T21:26:42Z,942760779316630000,5thHughes,Man this president gives me a head ache!  The answer to this gun issue was right in his face when he spoke with the Australian PM.,Twitter for iPhone,,,,FALSE,FALSE,2,0,,,,,,,,,,,,,,,,en,,,,,https://api.twitter.com/1.1/geo/id/0077f3ae1b34401c.json,Big Flats,"Big Flats, NY",city,United States,US,|,|,-76.966178|-76.860399|-76.860399|-76.966178|42.127128|42.127128|42.20027|42.20027,-76.9132885,42.163699,New York
967506025485079000,2018-02-24T21:06:26Z,2327882388,Zach_Gellner,"Me: *at work
Customer: *points at fish with a bump on his head
‚ÄúI bet he has a head ache‚Äù
Me: https://t.co/WVQBL8J4zk",Twitter for iPhone,,,,FALSE,FALSE,3,0,,,,,,http://pbs.twimg.com/media/DW1FlbBVAAAlS6g.jpg,https://t.co/WVQBL8J4zk,https://twitter.com/Zach_Gellner/status/967506025485078528/photo/1,photo,http://pbs.twimg.com/media/DW1FlbBVAAAlS6g.jpg,https://t.co/WVQBL8J4zk,https://twitter.com/Zach_Gellner/status/967506025485078528/photo/1,,,,en,,,,,https://api.twitter.com/1.1/geo/id/6cc49882c2468f39.json,Hinesville,"Hinesville, GA",city,United States,US,|,|,-81.6788325|-81.561514|-81.561514|-81.6788325|31.782055|31.782055|31.87296|31.87296,-81.62017325,31.8275075,Georgia
967493334867632000,2018-02-24T20:16:00Z,2275437324,H00ked0ndime_,Head ache already üòû,Twitter for iPhone,,,,FALSE,FALSE,0,0,,,,,,,,,,,,,,,,en,,,,,https://api.twitter.com/1.1/geo/id/1c69a67ad480e1b1.json,Houston,"Houston, TX",city,United States,US,|,|,-95.823268|-95.069705|-95.069705|-95.823268|29.522325|29.522325|30.1546646|30.1546646,-95.4464865,29.8384948,Texas
967472484395168000,2018-02-24T18:53:09Z,519729664,banditchinorich,Better then a head ache I'm just get the Bread straight,Twitter for iPhone,,,,FALSE,FALSE,0,0,,,,,,,,,,,,,,,,en,,,,,https://api.twitter.com/1.1/geo/id/1c69a67ad480e1b1.json,Houston,"Houston, TX",city,United States,US,|,|,-95.823268|-95.069705|-95.069705|-95.823268|29.522325|29.522325|30.1546646|30.1546646,-95.4464865,29.8384948,Texas
967280259421954000,2018-02-24T06:09:19Z,761056744021779000,mellaxox23,I gotta head ache so bad üòî,Twitter for iPhone,,,,FALSE,FALSE,0,0,,,,,,,,,,,,,,,,en,,,,,https://api.twitter.com/1.1/geo/id/4675d7ed312964e7.json,East St Louis,"East St Louis, IL",city,United States,US,|,|,-90.183218|-90.042091|-90.042091|-90.183218|38.57847|38.57847|38.645742|38.645742,-90.1126545,38.612106,Illinois
967238533546234000,2018-02-24T03:23:31Z,906548736288989000,megganelizaaaa,the new snap has me watching snaps from a week ago bc I get a head ache when I open it but I love&amp; support my friends and wanna see their lives üò¨,Twitter for iPhone,,,,FALSE,FALSE,1,0,,,,,,,,,,,,,,,,en,,,,,https://api.twitter.com/1.1/geo/id/ad1fd8a17d633e77.json,Rocky River,"Rocky River, OH",city,United States,US,|,|,-81.874568|-81.823152|-81.823152|-81.874568|41.4497417|41.4497417|41.490668|41.490668,-81.84886,41.47020485,Ohio
967225533414167000,2018-02-24T02:31:52Z,44559130,Krysis_,"Rough day at work today. Eyes hurt, head hurts, knee ache, and I'm‚Ä¶ https://t.co/cndvAzbRSh",Instagram,,,,FALSE,FALSE,0,0,,,instagram.com/p/BfkBEUaHCddh‚Ä¶,https://t.co/cndvAzbRSh,https://www.instagram.com/p/BfkBEUaHCddhLG1rFc-DcfwAVPJ97Tbo0J3SzE0/,,,,,,,,,,,en,,,,,https://api.twitter.com/1.1/geo/id/5c62ffb0f0f3479d.json,Phoenix,"Phoenix, AZ",city,United States,US,33.49179167|-111.98801944,-111.98801944|33.49179167,-112.3239143|-111.9254391|-111.9254391|-112.3239143|33.29026|33.29026|33.8154652|33.8154652,-112.1246767,33.5528626,Arizona
967182570743099000,2018-02-23T23:41:08Z,1123840398,DAJ3W,"There's an ache,
Theres an ache,
In my head,
While I hold my breath,
Convinced that you want me‚Ä¶ https://t.co/ZBV3sJyqht",Instagram,,,,FALSE,FALSE,1,0,,,instagram.com/p/BfjtkPon41e/,https://t.co/ZBV3sJyqht,https://www.instagram.com/p/BfjtkPon41e/,,,,,,,,,,,en,,,,,https://api.twitter.com/1.1/geo/id/a592bd6ceb1319f7.json,San Diego,"San Diego, CA",city,United States,US,32.83625|-117.12798,-117.12798|32.83625,-117.282538|-116.9274403|-116.9274403|-117.282538|32.53962|32.53962|33.0804044|33.0804044,-117.10498915,32.8100122,California
967072077479019000,2018-02-23T16:22:05Z,779157625208529000,vickyndreu,"15 yr old me: ""i hate the smell of weed it gives me such a head ache""
me now: https://t.co/n00IngyQZu",Twitter for iPhone,,,,FALSE,FALSE,3,0,,,,,,http://pbs.twimg.com/media/DWu669zUMAARAcI.jpg,https://t.co/n00IngyQZu,https://twitter.com/vickyndreu/status/967072077479018496/photo/1,photo,http://pbs.twimg.com/media/DWu669zUMAARAcI.jpg,https://t.co/n00IngyQZu,https://twitter.com/vickyndreu/status/967072077479018496/photo/1,,,,en,,,,,https://api.twitter.com/1.1/geo/id/01a9a39529b27f36.json,Manhattan,"Manhattan, NY",city,United States,US,|,|,-74.026675|-73.910408|-73.910408|-74.026675|40.683935|40.683935|40.877483|40.877483,-73.9685415,40.780709,New York
966916873630638000,2018-02-23T06:05:21Z,726933020,olsen_ol,Ugh I have a head ache,Twitter for iPhone,,,,FALSE,FALSE,0,0,,,,,,,,,,,,,,,,en,,,,,https://api.twitter.com/1.1/geo/id/f434511e8f0c8aa4.json,Reedley,"Reedley, CA",city,United States,US,|,|,-119.4699|-119.421897|-119.421897|-119.4699|36.575137|36.575137|36.618737|36.618737,-119.4458985,36.596937,California
966835705610625000,2018-02-23T00:42:49Z,414861880,steveortega1,"@FOXSports @ColinCowherd LOL!In the 1st place the WARRIORS don""t need a 40yr old wannabe that shoots nothing but lay-ups and slam-dunks.They have basketball players that can score at will.They don""t need a head-ache!",Twitter Web Client,966769589169238000,16877611,FOXSports,FALSE,FALSE,0,1,,,,,,,,,,,,,,16877611|52529896,FOXSports|ColinCowherd,en,,,,,https://api.twitter.com/1.1/geo/id/813a485b26b8dae2.json,Albuquerque,"Albuquerque, NM",city,United States,US,|,|,-106.7916912|-106.473745|-106.473745|-106.7916912|35.0158912|35.0158912|35.218114|35.218114,-106.6327181,35.1170026,New Mexico
966695252139627000,2018-02-22T15:24:43Z,809628173411484000,chaedoesTHIS_,My head ache so bad.üò´üò©,Twitter for iPhone,,,,FALSE,FALSE,0,0,,,,,,,,,,,,,,,,en,,,,,https://api.twitter.com/1.1/geo/id/5635c19c2b5078d1.json,Virginia,"Virginia, USA",admin,United States,US,|,|,-83.67529|-75.16644|-75.16644|-83.67529|36.540739|36.540739|39.466012|39.466012,-79.420865,38.0033755,Virginia
966680951744029000,2018-02-22T14:27:53Z,3530337381,Carlyycattt,@lilfuckinleah Bro I have a sinus infection 2 ear infections sore throat massive head ache and I‚Äôm on my period üò≠üò≠üò≠ my eyeballs also hurt lmfso,Twitter for iPhone,966680624215089000,443928948,lilfuckinleah,FALSE,FALSE,2,0,,,,,,,,,,,,,,443928948,lilfuckinleah,en,,,,,https://api.twitter.com/1.1/geo/id/011add077f4d2da3.json,Brooklyn,"Brooklyn, NY",city,United States,US,|,|,-74.041878|-73.855673|-73.855673|-74.041878|40.570842|40.570842|40.739434|40.739434,-73.9487755,40.655138,New York
966678984976200000,2018-02-22T14:20:04Z,833473165296742000,YurokInovator,Serious head ache today!,Twitter for Android,,,,FALSE,FALSE,0,0,,,,,,,,,,,,,,,,en,,,,,https://api.twitter.com/1.1/geo/id/01fbe706f872cb32.json,Washington,"Washington, DC",city,United States,US,|,|,-77.119401|-76.909396|-76.909396|-77.119401|38.801826|38.801826|38.9953797|38.9953797,-77.0143985,38.89860285,District of Columbia
966586240232579000,2018-02-22T08:11:32Z,2936442318,beetooreal,I have a fat ass head ache,Twitter for iPhone,,,,FALSE,FALSE,0,0,,,,,,,,,,,,,,,,en,,,,,https://api.twitter.com/1.1/geo/id/3df4f427b5a60fea.json,San Antonio,"San Antonio, TX",city,United States,US,|,|,-98.778559|-98.302744|-98.302744|-98.778559|29.141956|29.141956|29.693046|29.693046,-98.5406515,29.417501,Texas
966582740744266000,2018-02-22T07:57:38Z,2295000768,ocean_eyes_cx,I‚Äôve had a head ache since after class &amp; I cannot sleep,Twitter for iPhone,,,,FALSE,FALSE,1,1,,,,,,,,,,,,,,,,en,,,,,https://api.twitter.com/1.1/geo/id/44d207663001f00b.json,Mesa,"Mesa, AZ",city,United States,US,|,|,-111.894548|-111.5805834|-111.5805834|-111.894548|33.306275|33.306275|33.505234|33.505234,-111.7375657,33.4057545,Arizona
966564654989398000,2018-02-22T06:45:46Z,878038453715448000,boythatsjelly_,worst head ache ever üòîüòî,Twitter for iPhone,,,,FALSE,FALSE,0,0,,,,,,,,,,,,,,,,en,,,,,https://api.twitter.com/1.1/geo/id/361610d5aa1f6719.json,Conroe,"Conroe, TX",city,United States,US,|,|,-95.679001|-95.3972667|-95.3972667|-95.679001|30.23105|30.23105|30.443978|30.443978,-95.53813385,30.337514,Texas
966535896848917000,2018-02-22T04:51:29Z,2384472026,TaylorrComstock,i have the worst head ache ever and i can‚Äôt even fall asleep/:,Twitter for iPhone,,,,FALSE,FALSE,0,0,,,,,,,,,,,,,,,,en,,,,,https://api.twitter.com/1.1/geo/id/e06ed4324b139bf2.json,Cedar Rapids,"Cedar Rapids, IA",city,United States,US,|,|,-91.7745785|-91.59113|-91.59113|-91.7745785|41.886245|41.886245|42.0668109|42.0668109,-91.68285425,41.97652795,Iowa
966521785964483000,2018-02-22T03:55:25Z,324174115,___IIXIV,This head ache is beating me rn,Twitter for iPhone,,,,FALSE,FALSE,0,0,,,,,,,,,,,,,,,,en,,,,,https://api.twitter.com/1.1/geo/id/ac31053cb03c56b2.json,Towson,"Towson, MD",city,United States,US,|,|,-76.667184|-76.563177|-76.563177|-76.667184|39.371735|39.371735|39.420969|39.420969,-76.6151805,39.396352,Maryland
966521447513449000,2018-02-22T03:54:04Z,3987623713,SCPierogi,@Be_TheChange18 @Genie2 You're a head ache waiting to happen. God bless,Twitter for Android,966519315766772000,824047615687860000,Be_TheChange18,FALSE,FALSE,0,0,,,,,,,,,,,,,,824047615687860224|17367006,Be_TheChange18|Genie2,en,,,,,https://api.twitter.com/1.1/geo/id/44d207663001f00b.json,Mesa,"Mesa, AZ",city,United States,US,|,|,-111.894548|-111.5805834|-111.5805834|-111.894548|33.306275|33.306275|33.505234|33.505234,-111.7375657,33.4057545,Arizona
966518583277826000,2018-02-22T03:42:41Z,4909999732,findingmysanity,i'm sorry but why did my head decide to ache as soon as i started to go to bed that's so rude,Twitter for iPhone,,,,FALSE,FALSE,4,0,,,,,,,,,,,,,,,,en,,,,,https://api.twitter.com/1.1/geo/id/e0060cda70f5f341.json,Texas,"Texas, USA",admin,United States,US,|,|,-106.645646|-93.508131|-93.508131|-106.645646|25.837092|25.837092|36.500695|36.500695,-100.0768885,31.1688935,Texas
966480665817637000,2018-02-22T01:12:01Z,291532661,AuntBB44,Spent 6 hours today helping run our local Emergency food pantry that was short staffed.  Came home with a massive head ache (thank you day 3 of low carb eating).  3 hour nap.  Now what will I due now that I'll be awake all night? #Oops #WhatSleepPattern,Twitter for Android,,,,FALSE,FALSE,1,0,Oops|WhatSleepPattern,,,,,,,,,,,,,,,en,,,,,https://api.twitter.com/1.1/geo/id/4548df3d99bb4891.json,Fayetteville,"Fayetteville, NC",city,United States,US,|,|,-79.195342|-78.808883|-78.808883|-79.195342|34.936245|34.936245|35.173009|35.173009,-79.0021125,35.054627,North Carolina
966436541848609000,2018-02-21T22:16:41Z,900947589490557000,CrueaHelen,"All the rainy weather and melted snow has created lots of flooding all over Michigan. Also causing my head to hurt, body to ache and just overall fatigue. So since my hubby will be in a meeting till later tonight. Having breakfast for dinner &amp; napping b4 work",Twitter for iPhone,,,,FALSE,FALSE,1,0,,,,,,,,,,,,,,,,en,,,,,https://api.twitter.com/1.1/geo/id/ad28f5ba826eef8b.json,Sturgis,"Sturgis, MI",city,United States,US,|,|,-85.467075|-85.388952|-85.388952|-85.467075|41.7662714|41.7662714|41.825058|41.825058,-85.4280135,41.7956647,Michigan
966434346965008000,2018-02-21T22:07:58Z,384444971,rmattimore,It should realy be called a whole-side-of-head-and-neck ache instead of a toothache. #justow https://t.co/x7FIaKPuyL,Twitter for Android,,,,FALSE,FALSE,0,0,justow,,,,,http://pbs.twimg.com/tweet_video_thumb/DWl26RJVwAAHSEx.jpg,https://t.co/x7FIaKPuyL,https://twitter.com/rmattimore/status/966434346965008384/photo/1,photo,http://pbs.twimg.com/tweet_video_thumb/DWl26RJVwAAHSEx.jpg,https://t.co/x7FIaKPuyL,https://twitter.com/rmattimore/status/966434346965008384/photo/1,,,,en,,,,,https://api.twitter.com/1.1/geo/id/01a9a39529b27f36.json,Manhattan,"Manhattan, NY",city,United States,US,|,|,-74.026675|-73.910408|-73.910408|-74.026675|40.683935|40.683935|40.877483|40.877483,-73.9685415,40.780709,New York
966399430671811000,2018-02-21T19:49:13Z,913636573,angela_burris,"Triage: wheezing kid, head injury, finish coffee from this morning, stomach ache, leg pain, ear ache.",Twitter for iPhone,,,,FALSE,FALSE,3,0,,,,,,,,,,,,,,,,en,,,,,https://api.twitter.com/1.1/geo/id/1c69a67ad480e1b1.json,Houston,"Houston, TX",city,United States,US,|,|,-95.823268|-95.069705|-95.069705|-95.823268|29.522325|29.522325|30.1546646|30.1546646,-95.4464865,29.8384948,Texas
966397923654185000,2018-02-21T19:43:14Z,1439007709,Empey0311,"Unless you want a head ache and/or to gouge your eyes out, never call the VA. Cuz they suck.",Twitter for iPhone,,,,FALSE,FALSE,2,0,,,,,,,,,,,,,,,,en,,,,,https://api.twitter.com/1.1/geo/id/4b26b09f8108c4e8.json,Taylorsville,"Taylorsville, UT",city,United States,US,|,|,-111.9869461|-111.907843|-111.907843|-111.9869461|40.6275567|40.6275567|40.6863216|40.6863216,-111.94739455,40.65693915,Utah
966364794461803000,2018-02-21T17:31:35Z,744589244,Kimmsterr_yeah,I've seen two Botox commercials today and my heart and head ache as I think about how these next four weeks are gonna be rough. So close yet so far. Wouldn't wish chronic migraines on my worst enemy,Twitter for iPhone,,,,FALSE,FALSE,3,0,,,,,,,,,,,,,,,,en,,,,,https://api.twitter.com/1.1/geo/id/7271433758c9510f.json,Kankakee,"Kankakee, IL",city,United States,US,|,|,-87.928206|-87.8129211|-87.8129211|-87.928206|41.059959|41.059959|41.145902|41.145902,-87.87056355,41.1029305,Illinois
966362130952802000,2018-02-21T17:21:00Z,161139713,velvetbarstool,"I hope the students who are organizing and marching for this great cause will not give up. Remember people like Fannie Lou Hamer. You will be attacked, ridiculed, dismissed, your feet and head will ache. But change will come.",Twitter for iPhone,,,,FALSE,FALSE,2,0,,,,,,,,,,,,,,,,en,,,,,https://api.twitter.com/1.1/geo/id/7142eb97ae21e839.json,Georgia,"Georgia, USA",admin,United States,US,|,|,-85.605166|-80.742567|-80.742567|-85.605166|30.355644|30.355644|35.000771|35.000771,-83.1738665,32.6782075,Georgia
966171496090624000,2018-02-21T04:43:29Z,833473165296742000,YurokInovator,Head Ache tonight&amp; my eyes are in a lot of pain,Twitter for Android,,,,FALSE,FALSE,0,0,,,,,,,,,,,,,,,,en,,,,,https://api.twitter.com/1.1/geo/id/01fbe706f872cb32.json,Washington,"Washington, DC",city,United States,US,|,|,-77.119401|-76.909396|-76.909396|-77.119401|38.801826|38.801826|38.9953797|38.9953797,-77.0143985,38.89860285,District of Columbia
